[
  {
    "name": "Alibori Department",
    "state_code": "AL",
    "latitude": "10.96810930",
    "longitude": "2.77798130"
  },
  {
    "name": "Atakora Department",
    "state_code": "AK",
    "latitude": "10.79549310",
    "longitude": "1.67606910"
  },
  {
    "name": "Atlantique Department",
    "state_code": "AQ",
    "latitude": "6.65883910",
    "longitude": "2.22366670"
  },
  {
    "name": "Borgou Department",
    "state_code": "BO",
    "latitude": "9.53408640",
    "longitude": "2.77798130"
  },
  {
    "name": "Collines Department",
    "state_code": "CO",
    "latitude": "8.30222970",
    "longitude": "2.30244600"
  },
  {
    "name": "Donga Department",
    "state_code": "DO",
    "latitude": "9.71918670",
    "longitude": "1.67606910"
  },
  {
    "name": "Kouffo Department",
    "state_code": "KO",
    "latitude": "7.00358940",
    "longitude": "1.75388170"
  },
  {
    "name": "Littoral Department",
    "state_code": "LI",
    "latitude": "6.38069730",
    "longitude": "2.44063870"
  },
  {
    "name": "Mono Department",
    "state_code": "MO",
    "latitude": "37.92186080",
    "longitude": "-118.95286450"
  },
  {
    "name": "Ouémé Department",
    "state_code": "OU",
    "latitude": "6.61481520",
    "longitude": "2.49999180"
  },
  {
    "name": "Plateau Department",
    "state_code": "PL",
    "latitude": "7.34451410",
    "longitude": "2.53960300"
  },
  {
    "name": "Zou Department",
    "state_code": "ZO",
    "latitude": "7.34692680",
    "longitude": "2.06651970"
  }
]
