[
  {
    "name": "Central District",
    "state_code": "CE",
    "latitude": null,
    "longitude": null
  },
  {
    "name": "Ghanzi District",
    "state_code": "GH",
    "latitude": "-21.86523140",
    "longitude": "21.85685860"
  },
  {
    "name": "Kgalagadi District",
    "state_code": "KG",
    "latitude": "-24.75502850",
    "longitude": "21.85685860"
  },
  {
    "name": "Kgatleng District",
    "state_code": "KL",
    "latitude": "-24.19704450",
    "longitude": "26.23046160"
  },
  {
    "name": "Kweneng District",
    "state_code": "KW",
    "latitude": "-23.83672490",
    "longitude": "25.28375850"
  },
  {
    "name": "Ngamiland",
    "state_code": "NG",
    "latitude": "-19.19053210",
    "longitude": "23.00119890"
  },
  {
    "name": "North-East District",
    "state_code": "NE",
    "latitude": "37.58844610",
    "longitude": "-94.68637820"
  },
  {
    "name": "North-West District",
    "state_code": "NW",
    "latitude": "39.34463070",
    "longitude": "-76.68542830"
  },
  {
    "name": "South-East District",
    "state_code": "SE",
    "latitude": "31.21637980",
    "longitude": "-82.35270440"
  },
  {
    "name": "Southern District",
    "state_code": "SO",
    "latitude": null,
    "longitude": null
  }
]
