[
  {
    "name": "Bamingui-Bangoran Prefecture",
    "state_code": "BB",
    "latitude": "8.27334550",
    "longitude": "20.71224650"
  },
  {
    "name": "Bangui",
    "state_code": "BGF",
    "latitude": "4.39467350",
    "longitude": "18.55818990"
  },
  {
    "name": "Basse-Kotto Prefecture",
    "state_code": "BK",
    "latitude": "4.87193190",
    "longitude": "21.28450250"
  },
  {
    "name": "Haut-Mbomou Prefecture",
    "state_code": "HM",
    "latitude": "6.25371340",
    "longitude": "25.47335540"
  },
  {
    "name": "Haute-Kotto Prefecture",
    "state_code": "HK",
    "latitude": "7.79643790",
    "longitude": "23.38235450"
  },
  {
    "name": "Kémo Prefecture",
    "state_code": "KG",
    "latitude": "5.88677940",
    "longitude": "19.37832060"
  },
  {
    "name": "Lobaye Prefecture",
    "state_code": "LB",
    "latitude": "4.35259810",
    "longitude": "17.47951730"
  },
  {
    "name": "Mambéré-Kadéï",
    "state_code": "HS",
    "latitude": "4.70556530",
    "longitude": "15.96998780"
  },
  {
    "name": "Mbomou Prefecture",
    "state_code": "MB",
    "latitude": "5.55683700",
    "longitude": "23.76328280"
  },
  {
    "name": "Nana-Grébizi Economic Prefecture",
    "state_code": "KB",
    "latitude": "7.18486070",
    "longitude": "19.37832060"
  },
  {
    "name": "Nana-Mambéré Prefecture",
    "state_code": "NM",
    "latitude": "5.69321350",
    "longitude": "15.21948080"
  },
  {
    "name": "Ombella-M'Poko Prefecture",
    "state_code": "MP",
    "latitude": "5.11888250",
    "longitude": "18.42760470"
  },
  {
    "name": "Ouaka Prefecture",
    "state_code": "UK",
    "latitude": "6.31682160",
    "longitude": "20.71224650"
  },
  {
    "name": "Ouham Prefecture",
    "state_code": "AC",
    "latitude": "7.09091100",
    "longitude": "17.66888700"
  },
  {
    "name": "Ouham-Pendé Prefecture",
    "state_code": "OP",
    "latitude": "6.48509840",
    "longitude": "16.15809370"
  },
  {
    "name": "Sangha-Mbaéré",
    "state_code": "SE",
    "latitude": "3.43686070",
    "longitude": "16.34637910"
  },
  {
    "name": "Vakaga Prefecture",
    "state_code": "VK",
    "latitude": "9.51132960",
    "longitude": "22.23840170"
  }
]
