[
  {
    "name": "Anhui",
    "state_code": "AH",
    "latitude": "30.60067730",
    "longitude": "117.92490020"
  },
  {
    "name": "Beijing",
    "state_code": "BJ",
    "latitude": "39.90419990",
    "longitude": "116.40739630"
  },
  {
    "name": "Chongqing",
    "state_code": "CQ",
    "latitude": "29.43158610",
    "longitude": "106.91225100"
  },
  {
    "name": "Fujian",
    "state_code": "FJ",
    "latitude": "26.48368420",
    "longitude": "117.92490020"
  },
  {
    "name": "Gansu",
    "state_code": "GS",
    "latitude": "35.75183260",
    "longitude": "104.28611160"
  },
  {
    "name": "Guangdong",
    "state_code": "GD",
    "latitude": "23.37903330",
    "longitude": "113.76328280"
  },
  {
    "name": "Guangxi Zhuang",
    "state_code": "GX",
    "latitude": "23.72475990",
    "longitude": "108.80761950"
  },
  {
    "name": "Guizhou",
    "state_code": "GZ",
    "latitude": "26.84296450",
    "longitude": "107.29028390"
  },
  {
    "name": "Hainan",
    "state_code": "HI",
    "latitude": "19.56639470",
    "longitude": "109.94968600"
  },
  {
    "name": "Hebei",
    "state_code": "HE",
    "latitude": "37.89565940",
    "longitude": "114.90422080"
  },
  {
    "name": "Heilongjiang",
    "state_code": "HL",
    "latitude": "47.12164720",
    "longitude": "128.73823100"
  },
  {
    "name": "Henan",
    "state_code": "HA",
    "latitude": "34.29043020",
    "longitude": "113.38235450"
  },
  {
    "name": "Hong Kong SAR",
    "state_code": "HK",
    "latitude": "22.31930390",
    "longitude": "114.16936110"
  },
  {
    "name": "Hubei",
    "state_code": "HB",
    "latitude": "30.73781180",
    "longitude": "112.23840170"
  },
  {
    "name": "Hunan",
    "state_code": "HN",
    "latitude": "27.36830090",
    "longitude": "109.28193470"
  },
  {
    "name": "Inner Mongolia",
    "state_code": "NM",
    "latitude": "43.37822000",
    "longitude": "115.05948150"
  },
  {
    "name": "Jiangsu",
    "state_code": "JS",
    "latitude": "33.14017150",
    "longitude": "119.78892480"
  },
  {
    "name": "Jiangxi",
    "state_code": "JX",
    "latitude": "27.08745640",
    "longitude": "114.90422080"
  },
  {
    "name": "Jilin",
    "state_code": "JL",
    "latitude": "43.83788300",
    "longitude": "126.54957200"
  },
  {
    "name": "Liaoning",
    "state_code": "LN",
    "latitude": "41.94365430",
    "longitude": "122.52903760"
  },
  {
    "name": "Macau SAR",
    "state_code": "MO",
    "latitude": "22.19874500",
    "longitude": "113.54387300"
  },
  {
    "name": "Ningxia Huizu",
    "state_code": "NX",
    "latitude": "37.19873100",
    "longitude": "106.15809370"
  },
  {
    "name": "Qinghai",
    "state_code": "QH",
    "latitude": "35.74479800",
    "longitude": "96.40773580"
  },
  {
    "name": "Shaanxi",
    "state_code": "SN",
    "latitude": "35.39399080",
    "longitude": "109.18800470"
  },
  {
    "name": "Shandong",
    "state_code": "SD",
    "latitude": "37.80060640",
    "longitude": "-122.26999180"
  },
  {
    "name": "Shanghai",
    "state_code": "SH",
    "latitude": "31.23041600",
    "longitude": "121.47370100"
  },
  {
    "name": "Shanxi",
    "state_code": "SX",
    "latitude": "37.24256490",
    "longitude": "111.85685860"
  },
  {
    "name": "Sichuan",
    "state_code": "SC",
    "latitude": "30.26380320",
    "longitude": "102.80547530"
  },
  {
    "name": "Taiwan",
    "state_code": "TW",
    "latitude": "23.69781000",
    "longitude": "120.96051500"
  },
  {
    "name": "Tianjin",
    "state_code": "TJ",
    "latitude": "39.12522910",
    "longitude": "117.01534350"
  },
  {
    "name": "Xinjiang",
    "state_code": "XJ",
    "latitude": "42.52463570",
    "longitude": "87.53958550"
  },
  {
    "name": "Xizang",
    "state_code": "XZ",
    "latitude": "30.15336050",
    "longitude": "88.78786780"
  },
  {
    "name": "Yunnan",
    "state_code": "YN",
    "latitude": "24.47528470",
    "longitude": "101.34310580"
  },
  {
    "name": "Zhejiang",
    "state_code": "ZJ",
    "latitude": "29.14164320",
    "longitude": "119.78892480"
  }
]
