[
  {
    "name": "Ba",
    "state_code": "01",
    "latitude": "36.06138930",
    "longitude": "-95.80058720"
  },
  {
    "name": "Bua",
    "state_code": "02",
    "latitude": "43.09645840",
    "longitude": "-89.50088000"
  },
  {
    "name": "Cakaudrove",
    "state_code": "03",
    "latitude": "-16.58141050",
    "longitude": "179.51200840"
  },
  {
    "name": "Central Division",
    "state_code": "C",
    "latitude": "34.04400660",
    "longitude": "-118.24727380"
  },
  {
    "name": "Eastern Division",
    "state_code": "E",
    "latitude": "32.80943050",
    "longitude": "-117.12899370"
  },
  {
    "name": "Kadavu",
    "state_code": "04",
    "latitude": "-19.01271220",
    "longitude": "178.18766760"
  },
  {
    "name": "Lau",
    "state_code": "05",
    "latitude": "31.66870150",
    "longitude": "-106.39557630"
  },
  {
    "name": "Lomaiviti",
    "state_code": "06",
    "latitude": "-17.70900000",
    "longitude": "179.09100000"
  },
  {
    "name": "Macuata",
    "state_code": "07",
    "latitude": "-16.48649220",
    "longitude": "179.28472510"
  },
  {
    "name": "Nadroga-Navosa",
    "state_code": "08",
    "latitude": "-17.98652780",
    "longitude": "177.65811300"
  },
  {
    "name": "Naitasiri",
    "state_code": "09",
    "latitude": "-17.89757540",
    "longitude": "178.20715980"
  },
  {
    "name": "Namosi",
    "state_code": "10",
    "latitude": "-18.08641760",
    "longitude": "178.12913870"
  },
  {
    "name": "Northern Division",
    "state_code": "N",
    "latitude": "32.87687660",
    "longitude": "-117.21563450"
  },
  {
    "name": "Ra",
    "state_code": "11",
    "latitude": "37.10031530",
    "longitude": "-95.67442460"
  },
  {
    "name": "Rewa",
    "state_code": "12",
    "latitude": "34.79235170",
    "longitude": "-82.36092640"
  },
  {
    "name": "Rotuma",
    "state_code": "R",
    "latitude": "-12.50250690",
    "longitude": "177.07241640"
  },
  {
    "name": "Serua",
    "state_code": "13",
    "latitude": "-18.18047490",
    "longitude": "178.05097900"
  },
  {
    "name": "Tailevu",
    "state_code": "14",
    "latitude": "-17.82691110",
    "longitude": "178.29324800"
  },
  {
    "name": "Western Division",
    "state_code": "W",
    "latitude": "42.96621980",
    "longitude": "-78.70211340"
  }
]
