[
  {
    "name": "Adjara",
    "state_code": "AJ",
    "latitude": "41.60056260",
    "longitude": "42.06883830"
  },
  {
    "name": "Autonomous Republic of Abkhazia",
    "state_code": "AB",
    "latitude": "43.00155440",
    "longitude": "41.02340700"
  },
  {
    "name": "Guria",
    "state_code": "GU",
    "latitude": "41.94427360",
    "longitude": "42.04580910"
  },
  {
    "name": "Imereti",
    "state_code": "IM",
    "latitude": "42.23010800",
    "longitude": "42.90086640"
  },
  {
    "name": "Kakheti",
    "state_code": "KA",
    "latitude": "41.64816020",
    "longitude": "45.69055540"
  },
  {
    "name": "Khelvachauri Municipality",
    "state_code": "29",
    "latitude": "41.58019260",
    "longitude": "41.66107420"
  },
  {
    "name": "Kvemo Kartli",
    "state_code": "KK",
    "latitude": "41.47918330",
    "longitude": "44.65604510"
  },
  {
    "name": "Mtskheta-Mtianeti",
    "state_code": "MM",
    "latitude": "42.16821850",
    "longitude": "44.65060580"
  },
  {
    "name": "Racha-Lechkhumi and Kvemo Svaneti",
    "state_code": "RL",
    "latitude": "42.67188730",
    "longitude": "43.05628360"
  },
  {
    "name": "Samegrelo-Zemo Svaneti",
    "state_code": "SZ",
    "latitude": "42.73522470",
    "longitude": "42.16893620"
  },
  {
    "name": "Samtskhe-Javakheti",
    "state_code": "SJ",
    "latitude": "41.54792960",
    "longitude": "43.27764000"
  },
  {
    "name": "Senaki Municipality",
    "state_code": "50",
    "latitude": "42.26963600",
    "longitude": "42.06568960"
  },
  {
    "name": "Shida Kartli",
    "state_code": "SK",
    "latitude": "42.07569440",
    "longitude": "43.95404620"
  },
  {
    "name": "Tbilisi",
    "state_code": "TB",
    "latitude": "41.71513770",
    "longitude": "44.82709600"
  }
]
