[
  {
    "name": "Capital Region",
    "state_code": "1",
    "latitude": "38.56569570",
    "longitude": "-92.18169490"
  },
  {
    "name": "Eastern Region",
    "state_code": "7",
    "latitude": null,
    "longitude": null
  },
  {
    "name": "Northeastern Region",
    "state_code": "6",
    "latitude": "43.29942850",
    "longitude": "-74.21793260"
  },
  {
    "name": "Northwestern Region",
    "state_code": "5",
    "latitude": "41.91339320",
    "longitude": "-73.04716880"
  },
  {
    "name": "Southern Peninsula Region",
    "state_code": "2",
    "latitude": "63.91548030",
    "longitude": "-22.36496670"
  },
  {
    "name": "Southern Region",
    "state_code": "8",
    "latitude": null,
    "longitude": null
  },
  {
    "name": "Western Region",
    "state_code": "3",
    "latitude": null,
    "longitude": null
  },
  {
    "name": "Westfjords",
    "state_code": "4",
    "latitude": "65.91961500",
    "longitude": "-21.88117640"
  }
]
