[
  {
    "name": "Abruzzo",
    "state_code": "65",
    "latitude": "42.19201190",
    "longitude": "13.72891670"
  },
  {
    "name": "Agrigento",
    "state_code": "AG",
    "latitude": "37.31052020",
    "longitude": "13.58579780"
  },
  {
    "name": "Alessandria",
    "state_code": "AL",
    "latitude": "44.81755870",
    "longitude": "8.70466270"
  },
  {
    "name": "Ancona",
    "state_code": "AN",
    "latitude": "43.54932450",
    "longitude": "13.26634790"
  },
  {
    "name": "Aosta Valley",
    "state_code": "23",
    "latitude": "45.73888780",
    "longitude": "7.42618660"
  },
  {
    "name": "Apulia",
    "state_code": "75",
    "latitude": "40.79283930",
    "longitude": "17.10119310"
  },
  {
    "name": "Ascoli Piceno",
    "state_code": "AP",
    "latitude": "42.86389330",
    "longitude": "13.58997330"
  },
  {
    "name": "Asti",
    "state_code": "AT",
    "latitude": "44.90076520",
    "longitude": "8.20643150"
  },
  {
    "name": "Avellino",
    "state_code": "AV",
    "latitude": "40.99645100",
    "longitude": "15.12589550"
  },
  {
    "name": "Barletta-Andria-Trani",
    "state_code": "BT",
    "latitude": "41.20045430",
    "longitude": "16.20514840"
  },
  {
    "name": "Basilicata",
    "state_code": "77",
    "latitude": "40.64307660",
    "longitude": "15.96998780"
  },
  {
    "name": "Belluno",
    "state_code": "BL",
    "latitude": "46.24976590",
    "longitude": "12.19695650"
  },
  {
    "name": "Benevento",
    "state_code": "BN",
    "latitude": "41.20350930",
    "longitude": "14.75209390"
  },
  {
    "name": "Bergamo",
    "state_code": "BG",
    "latitude": "45.69826420",
    "longitude": "9.67726980"
  },
  {
    "name": "Biella",
    "state_code": "BI",
    "latitude": "45.56281760",
    "longitude": "8.05827170"
  },
  {
    "name": "Brescia",
    "state_code": "BS",
    "latitude": "45.54155260",
    "longitude": "10.21180190"
  },
  {
    "name": "Brindisi",
    "state_code": "BR",
    "latitude": "40.61126630",
    "longitude": "17.76362100"
  },
  {
    "name": "Calabria",
    "state_code": "78",
    "latitude": "39.30877140",
    "longitude": "16.34637910"
  },
  {
    "name": "Caltanissetta",
    "state_code": "CL",
    "latitude": "37.48601300",
    "longitude": "14.06149820"
  },
  {
    "name": "Campania",
    "state_code": "72",
    "latitude": "40.66708870",
    "longitude": "15.10681130"
  },
  {
    "name": "Campobasso",
    "state_code": "CB",
    "latitude": "41.67388650",
    "longitude": "14.75209390"
  },
  {
    "name": "Caserta",
    "state_code": "CE",
    "latitude": "41.20783540",
    "longitude": "14.10013260"
  },
  {
    "name": "Catanzaro",
    "state_code": "CZ",
    "latitude": "38.88963480",
    "longitude": "16.44058720"
  },
  {
    "name": "Chieti",
    "state_code": "CH",
    "latitude": "42.03344280",
    "longitude": "14.37919120"
  },
  {
    "name": "Como",
    "state_code": "CO",
    "latitude": "45.80804160",
    "longitude": "9.08517930"
  },
  {
    "name": "Cosenza",
    "state_code": "CS",
    "latitude": "39.56441050",
    "longitude": "16.25221430"
  },
  {
    "name": "Cremona",
    "state_code": "CR",
    "latitude": "45.20143750",
    "longitude": "9.98365820"
  },
  {
    "name": "Crotone",
    "state_code": "KR",
    "latitude": "39.13098560",
    "longitude": "17.00670310"
  },
  {
    "name": "Cuneo",
    "state_code": "CN",
    "latitude": "44.59703140",
    "longitude": "7.61142170"
  },
  {
    "name": "Emilia-Romagna",
    "state_code": "45",
    "latitude": "44.59676070",
    "longitude": "11.21863960"
  },
  {
    "name": "Enna",
    "state_code": "EN",
    "latitude": "37.56762160",
    "longitude": "14.27953490"
  },
  {
    "name": "Fermo",
    "state_code": "FM",
    "latitude": "43.09313670",
    "longitude": "13.58997330"
  },
  {
    "name": "Ferrara",
    "state_code": "FE",
    "latitude": "44.76636800",
    "longitude": "11.76440680"
  },
  {
    "name": "Foggia",
    "state_code": "FG",
    "latitude": "41.63844800",
    "longitude": "15.59433880"
  },
  {
    "name": "Forlì-Cesena",
    "state_code": "FC",
    "latitude": "43.99476810",
    "longitude": "11.98046130"
  },
  {
    "name": "Friuli–Venezia Giulia",
    "state_code": "36",
    "latitude": "46.22591770",
    "longitude": "13.10336460"
  },
  {
    "name": "Frosinone",
    "state_code": "FR",
    "latitude": "41.65765280",
    "longitude": "13.63627150"
  },
  {
    "name": "Gorizia",
    "state_code": "GO",
    "latitude": "45.90538990",
    "longitude": "13.51637250"
  },
  {
    "name": "Grosseto",
    "state_code": "GR",
    "latitude": "42.85180070",
    "longitude": "11.25237920"
  },
  {
    "name": "Imperia",
    "state_code": "IM",
    "latitude": "43.94186600",
    "longitude": "7.82863680"
  },
  {
    "name": "Isernia",
    "state_code": "IS",
    "latitude": "41.58915550",
    "longitude": "14.19309180"
  },
  {
    "name": "L'Aquila",
    "state_code": "AQ",
    "latitude": "42.12563170",
    "longitude": "13.63627150"
  },
  {
    "name": "La Spezia",
    "state_code": "SP",
    "latitude": "44.24479130",
    "longitude": "9.76786870"
  },
  {
    "name": "Latina",
    "state_code": "LT",
    "latitude": "41.40874760",
    "longitude": "13.08179030"
  },
  {
    "name": "Lazio",
    "state_code": "62",
    "latitude": "41.81224100",
    "longitude": "12.73851000"
  },
  {
    "name": "Lecce",
    "state_code": "LE",
    "latitude": "40.23473930",
    "longitude": "18.14286690"
  },
  {
    "name": "Lecco",
    "state_code": "LC",
    "latitude": "45.93829410",
    "longitude": "9.38572900"
  },
  {
    "name": "Liguria",
    "state_code": "42",
    "latitude": "44.31679170",
    "longitude": "8.39649380"
  },
  {
    "name": "Livorno",
    "state_code": "LI",
    "latitude": "43.02398480",
    "longitude": "10.66471010"
  },
  {
    "name": "Lodi",
    "state_code": "LO",
    "latitude": "45.24050360",
    "longitude": "9.52925120"
  },
  {
    "name": "Lombardy",
    "state_code": "25",
    "latitude": "45.47906710",
    "longitude": "9.84524330"
  },
  {
    "name": "Lucca",
    "state_code": "LU",
    "latitude": "43.83767360",
    "longitude": "10.49505300"
  },
  {
    "name": "Macerata",
    "state_code": "MC",
    "latitude": "43.24593220",
    "longitude": "13.26634790"
  },
  {
    "name": "Mantua",
    "state_code": "MN",
    "latitude": "45.16677280",
    "longitude": "10.77536130"
  },
  {
    "name": "Marche",
    "state_code": "57",
    "latitude": "43.30456200",
    "longitude": "13.71947000"
  },
  {
    "name": "Massa and Carrara",
    "state_code": "MS",
    "latitude": "44.22139980",
    "longitude": "10.03596610"
  },
  {
    "name": "Matera",
    "state_code": "MT",
    "latitude": "40.66634960",
    "longitude": "16.60436360"
  },
  {
    "name": "Medio Campidano",
    "state_code": "VS",
    "latitude": "39.53173890",
    "longitude": "8.70407500"
  },
  {
    "name": "Modena",
    "state_code": "MO",
    "latitude": "44.55137990",
    "longitude": "10.91804800"
  },
  {
    "name": "Molise",
    "state_code": "67",
    "latitude": "41.67388650",
    "longitude": "14.75209390"
  },
  {
    "name": "Monza and Brianza",
    "state_code": "MB",
    "latitude": "45.62359900",
    "longitude": "9.25880150"
  },
  {
    "name": "Novara",
    "state_code": "NO",
    "latitude": "45.54851330",
    "longitude": "8.51507930"
  },
  {
    "name": "Nuoro",
    "state_code": "NU",
    "latitude": "40.32869040",
    "longitude": "9.45615500"
  },
  {
    "name": "Oristano",
    "state_code": "OR",
    "latitude": "40.05990680",
    "longitude": "8.74811670"
  },
  {
    "name": "Padua",
    "state_code": "PD",
    "latitude": "45.36618640",
    "longitude": "11.82091390"
  },
  {
    "name": "Palermo",
    "state_code": "PA",
    "latitude": "38.11569000",
    "longitude": "13.36148680"
  },
  {
    "name": "Parma",
    "state_code": "PR",
    "latitude": "44.80153220",
    "longitude": "10.32793540"
  },
  {
    "name": "Pavia",
    "state_code": "PV",
    "latitude": "45.32181660",
    "longitude": "8.84662360"
  },
  {
    "name": "Perugia",
    "state_code": "PG",
    "latitude": "42.93800400",
    "longitude": "12.62162110"
  },
  {
    "name": "Pesaro and Urbino",
    "state_code": "PU",
    "latitude": "43.61301180",
    "longitude": "12.71351210"
  },
  {
    "name": "Pescara",
    "state_code": "PE",
    "latitude": "42.35706550",
    "longitude": "13.96080910"
  },
  {
    "name": "Piacenza",
    "state_code": "PC",
    "latitude": "44.82631120",
    "longitude": "9.52914470"
  },
  {
    "name": "Piedmont",
    "state_code": "21",
    "latitude": "45.05223660",
    "longitude": "7.51538850"
  },
  {
    "name": "Pisa",
    "state_code": "PI",
    "latitude": "43.72283150",
    "longitude": "10.40171940"
  },
  {
    "name": "Pistoia",
    "state_code": "PT",
    "latitude": "43.95437330",
    "longitude": "10.89030990"
  },
  {
    "name": "Pordenone",
    "state_code": "PN",
    "latitude": "46.03788620",
    "longitude": "12.71083500"
  },
  {
    "name": "Potenza",
    "state_code": "PZ",
    "latitude": "40.41821940",
    "longitude": "15.87600400"
  },
  {
    "name": "Prato",
    "state_code": "PO",
    "latitude": "44.04539000",
    "longitude": "11.11644520"
  },
  {
    "name": "Ragusa",
    "state_code": "RG",
    "latitude": "36.92692730",
    "longitude": "14.72551290"
  },
  {
    "name": "Ravenna",
    "state_code": "RA",
    "latitude": "44.41844430",
    "longitude": "12.20359980"
  },
  {
    "name": "Reggio Emilia",
    "state_code": "RE",
    "latitude": "44.58565800",
    "longitude": "10.55647360"
  },
  {
    "name": "Rieti",
    "state_code": "RI",
    "latitude": "42.36744050",
    "longitude": "12.89750980"
  },
  {
    "name": "Rimini",
    "state_code": "RN",
    "latitude": "44.06782880",
    "longitude": "12.56951580"
  },
  {
    "name": "Rovigo",
    "state_code": "RO",
    "latitude": "45.02418180",
    "longitude": "11.82381620"
  },
  {
    "name": "Salerno",
    "state_code": "SA",
    "latitude": "40.42878320",
    "longitude": "15.21948080"
  },
  {
    "name": "Sardinia",
    "state_code": "88",
    "latitude": "40.12087520",
    "longitude": "9.01289260"
  },
  {
    "name": "Sassari",
    "state_code": "SS",
    "latitude": "40.79679070",
    "longitude": "8.57504070"
  },
  {
    "name": "Savona",
    "state_code": "SV",
    "latitude": "44.28879950",
    "longitude": "8.26505800"
  },
  {
    "name": "Sicily",
    "state_code": "82",
    "latitude": "37.59999380",
    "longitude": "14.01535570"
  },
  {
    "name": "Siena",
    "state_code": "SI",
    "latitude": "43.29377320",
    "longitude": "11.43391480"
  },
  {
    "name": "Siracusa",
    "state_code": "SR",
    "latitude": "37.06569240",
    "longitude": "15.28571090"
  },
  {
    "name": "Sondrio",
    "state_code": "SO",
    "latitude": "46.17276360",
    "longitude": "9.79949170"
  },
  {
    "name": "South Sardinia",
    "state_code": "SU",
    "latitude": "39.38935350",
    "longitude": "8.93970000"
  },
  {
    "name": "Taranto",
    "state_code": "TA",
    "latitude": "40.57409010",
    "longitude": "17.24299760"
  },
  {
    "name": "Teramo",
    "state_code": "TE",
    "latitude": "42.58956080",
    "longitude": "13.63627150"
  },
  {
    "name": "Terni",
    "state_code": "TR",
    "latitude": "42.56345340",
    "longitude": "12.52980280"
  },
  {
    "name": "Trapani",
    "state_code": "TP",
    "latitude": "38.01831160",
    "longitude": "12.51482650"
  },
  {
    "name": "Trentino-South Tyrol",
    "state_code": "32",
    "latitude": "46.43366620",
    "longitude": "11.16932960"
  },
  {
    "name": "Treviso",
    "state_code": "TV",
    "latitude": "45.66685170",
    "longitude": "12.24306170"
  },
  {
    "name": "Trieste",
    "state_code": "TS",
    "latitude": "45.68948230",
    "longitude": "13.78330720"
  },
  {
    "name": "Tuscany",
    "state_code": "52",
    "latitude": "43.77105130",
    "longitude": "11.24862080"
  },
  {
    "name": "Udine",
    "state_code": "UD",
    "latitude": "46.14079720",
    "longitude": "13.16628960"
  },
  {
    "name": "Umbria",
    "state_code": "55",
    "latitude": "42.93800400",
    "longitude": "12.62162110"
  },
  {
    "name": "Varese",
    "state_code": "VA",
    "latitude": "45.79902600",
    "longitude": "8.73009450"
  },
  {
    "name": "Veneto",
    "state_code": "34",
    "latitude": "45.44146620",
    "longitude": "12.31525950"
  },
  {
    "name": "Verbano-Cusio-Ossola",
    "state_code": "VB",
    "latitude": "46.13996880",
    "longitude": "8.27246490"
  },
  {
    "name": "Vercelli",
    "state_code": "VC",
    "latitude": "45.32022040",
    "longitude": "8.41850800"
  },
  {
    "name": "Verona",
    "state_code": "VR",
    "latitude": "45.44184980",
    "longitude": "11.07353160"
  },
  {
    "name": "Vibo Valentia",
    "state_code": "VV",
    "latitude": "38.63785650",
    "longitude": "16.20514840"
  },
  {
    "name": "Vicenza",
    "state_code": "VI",
    "latitude": "45.69839950",
    "longitude": "11.56614650"
  },
  {
    "name": "Viterbo",
    "state_code": "VT",
    "latitude": "42.40024200",
    "longitude": "11.88917210"
  }
]
