[
  {
    "name": "Clarendon Parish",
    "state_code": "13",
    "latitude": "17.95571830",
    "longitude": "-77.24051530"
  },
  {
    "name": "Hanover Parish",
    "state_code": "09",
    "latitude": "18.40977070",
    "longitude": "-78.13363800"
  },
  {
    "name": "Kingston Parish",
    "state_code": "01",
    "latitude": "17.96832710",
    "longitude": "-76.78270200"
  },
  {
    "name": "Manchester Parish",
    "state_code": "12",
    "latitude": "18.06696540",
    "longitude": "-77.51607880"
  },
  {
    "name": "Portland Parish",
    "state_code": "04",
    "latitude": "18.08442740",
    "longitude": "-76.41002670"
  },
  {
    "name": "Saint Andrew",
    "state_code": "02",
    "latitude": "37.22451030",
    "longitude": "-95.70211890"
  },
  {
    "name": "Saint Ann Parish",
    "state_code": "06",
    "latitude": "37.28714520",
    "longitude": "-77.41035330"
  },
  {
    "name": "Saint Catherine Parish",
    "state_code": "14",
    "latitude": "18.03641340",
    "longitude": "-77.05644640"
  },
  {
    "name": "Saint Elizabeth Parish",
    "state_code": "11",
    "latitude": "38.99253080",
    "longitude": "-94.58992000"
  },
  {
    "name": "Saint James Parish",
    "state_code": "08",
    "latitude": "30.01792920",
    "longitude": "-90.79132270"
  },
  {
    "name": "Saint Mary Parish",
    "state_code": "05",
    "latitude": "36.09252200",
    "longitude": "-95.97384400"
  },
  {
    "name": "Saint Thomas Parish",
    "state_code": "03",
    "latitude": "41.44253890",
    "longitude": "-81.74022180"
  },
  {
    "name": "Trelawny Parish",
    "state_code": "07",
    "latitude": "18.35261430",
    "longitude": "-77.60778650"
  },
  {
    "name": "Westmoreland Parish",
    "state_code": "10",
    "latitude": "18.29443780",
    "longitude": "-78.15644320"
  }
]
