[
  {
    "name": "Chagang Province",
    "state_code": "04",
    "latitude": "40.72028090",
    "longitude": "126.56211370"
  },
  {
    "name": "Kangwon Province",
    "state_code": "07",
    "latitude": "38.84323930",
    "longitude": "127.55970670"
  },
  {
    "name": "North Hamgyong Province",
    "state_code": "09",
    "latitude": "41.81487580",
    "longitude": "129.45819550"
  },
  {
    "name": "North Hwanghae Province",
    "state_code": "06",
    "latitude": "38.37860850",
    "longitude": "126.43643630"
  },
  {
    "name": "North Pyongan Province",
    "state_code": "03",
    "latitude": "39.92556180",
    "longitude": "125.39280250"
  },
  {
    "name": "Pyongyang",
    "state_code": "01",
    "latitude": "39.03921930",
    "longitude": "125.76252410"
  },
  {
    "name": "Rason",
    "state_code": "13",
    "latitude": "42.25690630",
    "longitude": "130.29771860"
  },
  {
    "name": "Ryanggang Province",
    "state_code": "10",
    "latitude": "41.23189210",
    "longitude": "128.50763590"
  },
  {
    "name": "South Hamgyong Province",
    "state_code": "08",
    "latitude": "40.37253390",
    "longitude": "128.29888400"
  },
  {
    "name": "South Hwanghae Province",
    "state_code": "05",
    "latitude": "38.20072150",
    "longitude": "125.47819260"
  },
  {
    "name": "South Pyongan Province",
    "state_code": "02",
    "latitude": "39.35391780",
    "longitude": "126.16827100"
  }
]
