[
  {
    "name": "Aglona Municipality",
    "state_code": "001",
    "latitude": "56.10890060",
    "longitude": "27.12862270"
  },
  {
    "name": "Aizkraukle Municipality",
    "state_code": "002",
    "latitude": "56.64610800",
    "longitude": "25.23708540"
  },
  {
    "name": "Aizpute Municipality",
    "state_code": "003",
    "latitude": "56.71825960",
    "longitude": "21.60727590"
  },
  {
    "name": "Aknīste Municipality",
    "state_code": "004",
    "latitude": "56.16130370",
    "longitude": "25.74848270"
  },
  {
    "name": "Aloja Municipality",
    "state_code": "005",
    "latitude": "57.76713600",
    "longitude": "24.87708390"
  },
  {
    "name": "Alsunga Municipality",
    "state_code": "006",
    "latitude": "56.98285310",
    "longitude": "21.55559190"
  },
  {
    "name": "Alūksne Municipality",
    "state_code": "007",
    "latitude": "57.42544850",
    "longitude": "27.04249680"
  },
  {
    "name": "Amata Municipality",
    "state_code": "008",
    "latitude": "56.99387260",
    "longitude": "25.26276750"
  },
  {
    "name": "Ape Municipality",
    "state_code": "009",
    "latitude": "57.53926970",
    "longitude": "26.69416490"
  },
  {
    "name": "Auce Municipality",
    "state_code": "010",
    "latitude": "56.46016800",
    "longitude": "22.90547810"
  },
  {
    "name": "Babīte Municipality",
    "state_code": "012",
    "latitude": "56.95415500",
    "longitude": "23.94539900"
  },
  {
    "name": "Baldone Municipality",
    "state_code": "013",
    "latitude": "56.74246000",
    "longitude": "24.39115440"
  },
  {
    "name": "Baltinava Municipality",
    "state_code": "014",
    "latitude": "56.94584680",
    "longitude": "27.64410660"
  },
  {
    "name": "Balvi Municipality",
    "state_code": "015",
    "latitude": "57.13262400",
    "longitude": "27.26466850"
  },
  {
    "name": "Bauska Municipality",
    "state_code": "016",
    "latitude": "56.41018680",
    "longitude": "24.20006890"
  },
  {
    "name": "Beverīna Municipality",
    "state_code": "017",
    "latitude": "57.51971090",
    "longitude": "25.60736540"
  },
  {
    "name": "Brocēni Municipality",
    "state_code": "018",
    "latitude": "56.73475410",
    "longitude": "22.63573710"
  },
  {
    "name": "Burtnieki Municipality",
    "state_code": "019",
    "latitude": "57.69490040",
    "longitude": "25.27647770"
  },
  {
    "name": "Carnikava Municipality",
    "state_code": "020",
    "latitude": "57.10241210",
    "longitude": "24.21086620"
  },
  {
    "name": "Cēsis Municipality",
    "state_code": "022",
    "latitude": "57.31028970",
    "longitude": "25.26761250"
  },
  {
    "name": "Cesvaine Municipality",
    "state_code": "021",
    "latitude": "56.96792640",
    "longitude": "26.30831720"
  },
  {
    "name": "Cibla Municipality",
    "state_code": "023",
    "latitude": "56.61023440",
    "longitude": "27.86965980"
  },
  {
    "name": "Dagda Municipality",
    "state_code": "024",
    "latitude": "56.09560890",
    "longitude": "27.53245900"
  },
  {
    "name": "Daugavpils",
    "state_code": "DGV",
    "latitude": "55.87473600",
    "longitude": "26.53617900"
  },
  {
    "name": "Daugavpils Municipality",
    "state_code": "025",
    "latitude": "55.89917830",
    "longitude": "26.61020120"
  },
  {
    "name": "Dobele Municipality",
    "state_code": "026",
    "latitude": "56.62630500",
    "longitude": "23.28090660"
  },
  {
    "name": "Dundaga Municipality",
    "state_code": "027",
    "latitude": "57.50491670",
    "longitude": "22.35051140"
  },
  {
    "name": "Durbe Municipality",
    "state_code": "028",
    "latitude": "56.62798570",
    "longitude": "21.49162450"
  },
  {
    "name": "Engure Municipality",
    "state_code": "029",
    "latitude": "57.16235000",
    "longitude": "23.21966340"
  },
  {
    "name": "Ērgļi Municipality",
    "state_code": "030",
    "latitude": "56.92370650",
    "longitude": "25.67538520"
  },
  {
    "name": "Garkalne Municipality",
    "state_code": "031",
    "latitude": "57.01903870",
    "longitude": "24.38261810"
  },
  {
    "name": "Grobiņa Municipality",
    "state_code": "032",
    "latitude": "56.53963200",
    "longitude": "21.16689200"
  },
  {
    "name": "Gulbene Municipality",
    "state_code": "033",
    "latitude": "57.21556450",
    "longitude": "26.64529550"
  },
  {
    "name": "Iecava Municipality",
    "state_code": "034",
    "latitude": "56.59867930",
    "longitude": "24.19962720"
  },
  {
    "name": "Ikšķile Municipality",
    "state_code": "035",
    "latitude": "56.83736670",
    "longitude": "24.49747450"
  },
  {
    "name": "Ilūkste Municipality",
    "state_code": "036",
    "latitude": "55.97825470",
    "longitude": "26.29650880"
  },
  {
    "name": "Inčukalns Municipality",
    "state_code": "037",
    "latitude": "57.09943420",
    "longitude": "24.68555700"
  },
  {
    "name": "Jaunjelgava Municipality",
    "state_code": "038",
    "latitude": "56.52836590",
    "longitude": "25.39214430"
  },
  {
    "name": "Jaunpiebalga Municipality",
    "state_code": "039",
    "latitude": "57.14334710",
    "longitude": "25.99518880"
  },
  {
    "name": "Jaunpils Municipality",
    "state_code": "040",
    "latitude": "56.73141940",
    "longitude": "23.01256160"
  },
  {
    "name": "Jēkabpils",
    "state_code": "JKB",
    "latitude": "56.50145500",
    "longitude": "25.87829900"
  },
  {
    "name": "Jēkabpils Municipality",
    "state_code": "042",
    "latitude": "56.29193200",
    "longitude": "25.98120170"
  },
  {
    "name": "Jelgava",
    "state_code": "JEL",
    "latitude": "56.65110910",
    "longitude": "23.72135410"
  },
  {
    "name": "Jelgava Municipality",
    "state_code": "041",
    "latitude": "56.58956890",
    "longitude": "23.66104810"
  },
  {
    "name": "Jūrmala",
    "state_code": "JUR",
    "latitude": "56.94707900",
    "longitude": "23.61684850"
  },
  {
    "name": "Kandava Municipality",
    "state_code": "043",
    "latitude": "57.03406730",
    "longitude": "22.78018130"
  },
  {
    "name": "Kārsava Municipality",
    "state_code": "044",
    "latitude": "56.76458420",
    "longitude": "27.73582950"
  },
  {
    "name": "Ķegums Municipality",
    "state_code": "051",
    "latitude": "56.74753570",
    "longitude": "24.71736450"
  },
  {
    "name": "Ķekava Municipality",
    "state_code": "052",
    "latitude": "56.80643510",
    "longitude": "24.19394930"
  },
  {
    "name": "Kocēni Municipality",
    "state_code": "045",
    "latitude": "57.52262920",
    "longitude": "25.33495070"
  },
  {
    "name": "Koknese Municipality",
    "state_code": "046",
    "latitude": "56.72055600",
    "longitude": "25.48939090"
  },
  {
    "name": "Krāslava Municipality",
    "state_code": "047",
    "latitude": "55.89514640",
    "longitude": "27.18145770"
  },
  {
    "name": "Krimulda Municipality",
    "state_code": "048",
    "latitude": "57.17912730",
    "longitude": "24.71401270"
  },
  {
    "name": "Krustpils Municipality",
    "state_code": "049",
    "latitude": "56.54155780",
    "longitude": "26.24463970"
  },
  {
    "name": "Kuldīga Municipality",
    "state_code": "050",
    "latitude": "56.96872570",
    "longitude": "21.96137390"
  },
  {
    "name": "Lielvārde Municipality",
    "state_code": "053",
    "latitude": "56.73929760",
    "longitude": "24.97116180"
  },
  {
    "name": "Liepāja",
    "state_code": "LPX",
    "latitude": "56.50466780",
    "longitude": "21.01080600"
  },
  {
    "name": "Līgatne Municipality",
    "state_code": "055",
    "latitude": "57.19442040",
    "longitude": "25.09406810"
  },
  {
    "name": "Limbaži Municipality",
    "state_code": "054",
    "latitude": "57.54032270",
    "longitude": "24.71344510"
  },
  {
    "name": "Līvāni Municipality",
    "state_code": "056",
    "latitude": "56.35509420",
    "longitude": "26.17251900"
  },
  {
    "name": "Lubāna Municipality",
    "state_code": "057",
    "latitude": "56.89992690",
    "longitude": "26.71987890"
  },
  {
    "name": "Ludza Municipality",
    "state_code": "058",
    "latitude": "56.54595900",
    "longitude": "27.71431990"
  },
  {
    "name": "Madona Municipality",
    "state_code": "059",
    "latitude": "56.85989230",
    "longitude": "26.22762010"
  },
  {
    "name": "Mālpils Municipality",
    "state_code": "061",
    "latitude": "57.00841190",
    "longitude": "24.95742780"
  },
  {
    "name": "Mārupe Municipality",
    "state_code": "062",
    "latitude": "56.89657170",
    "longitude": "24.04600490"
  },
  {
    "name": "Mazsalaca Municipality",
    "state_code": "060",
    "latitude": "57.92677490",
    "longitude": "25.06698950"
  },
  {
    "name": "Mērsrags Municipality",
    "state_code": "063",
    "latitude": "57.33068810",
    "longitude": "23.10237070"
  },
  {
    "name": "Naukšēni Municipality",
    "state_code": "064",
    "latitude": "57.92953610",
    "longitude": "25.51192660"
  },
  {
    "name": "Nereta Municipality",
    "state_code": "065",
    "latitude": "56.19866550",
    "longitude": "25.32529690"
  },
  {
    "name": "Nīca Municipality",
    "state_code": "066",
    "latitude": "56.34649830",
    "longitude": "21.06549300"
  },
  {
    "name": "Ogre Municipality",
    "state_code": "067",
    "latitude": "56.81473550",
    "longitude": "24.60445550"
  },
  {
    "name": "Olaine Municipality",
    "state_code": "068",
    "latitude": "56.79523530",
    "longitude": "24.01535890"
  },
  {
    "name": "Ozolnieki Municipality",
    "state_code": "069",
    "latitude": "56.67563050",
    "longitude": "23.89948160"
  },
  {
    "name": "Pārgauja Municipality",
    "state_code": "070",
    "latitude": "57.36481220",
    "longitude": "24.98220450"
  },
  {
    "name": "Pāvilosta Municipality",
    "state_code": "071",
    "latitude": "56.88654240",
    "longitude": "21.19468490"
  },
  {
    "name": "Pļaviņas Municipality",
    "state_code": "072",
    "latitude": "56.61773130",
    "longitude": "25.71940430"
  },
  {
    "name": "Preiļi Municipality",
    "state_code": "073",
    "latitude": "56.15111570",
    "longitude": "26.74397670"
  },
  {
    "name": "Priekule Municipality",
    "state_code": "074",
    "latitude": "56.41794130",
    "longitude": "21.55033360"
  },
  {
    "name": "Priekuļi Municipality",
    "state_code": "075",
    "latitude": "57.36171380",
    "longitude": "25.44104230"
  },
  {
    "name": "Rauna Municipality",
    "state_code": "076",
    "latitude": "57.33169300",
    "longitude": "25.61003390"
  },
  {
    "name": "Rēzekne",
    "state_code": "REZ",
    "latitude": "56.50992230",
    "longitude": "27.33313570"
  },
  {
    "name": "Rēzekne Municipality",
    "state_code": "077",
    "latitude": "56.32736380",
    "longitude": "27.32843310"
  },
  {
    "name": "Riebiņi Municipality",
    "state_code": "078",
    "latitude": "56.34361900",
    "longitude": "26.80181380"
  },
  {
    "name": "Riga",
    "state_code": "RIX",
    "latitude": "56.94964870",
    "longitude": "24.10518650"
  },
  {
    "name": "Roja Municipality",
    "state_code": "079",
    "latitude": "57.50467130",
    "longitude": "22.80121640"
  },
  {
    "name": "Ropaži Municipality",
    "state_code": "080",
    "latitude": "56.96157860",
    "longitude": "24.60104760"
  },
  {
    "name": "Rucava Municipality",
    "state_code": "081",
    "latitude": "56.15931240",
    "longitude": "21.16181210"
  },
  {
    "name": "Rugāji Municipality",
    "state_code": "082",
    "latitude": "57.00560230",
    "longitude": "27.13172030"
  },
  {
    "name": "Rūjiena Municipality",
    "state_code": "084",
    "latitude": "57.89372910",
    "longitude": "25.33910080"
  },
  {
    "name": "Rundāle Municipality",
    "state_code": "083",
    "latitude": "56.40972100",
    "longitude": "24.01241390"
  },
  {
    "name": "Sala Municipality",
    "state_code": "085",
    "latitude": "59.96796130",
    "longitude": "16.49782170"
  },
  {
    "name": "Salacgrīva Municipality",
    "state_code": "086",
    "latitude": "57.75808830",
    "longitude": "24.35431810"
  },
  {
    "name": "Salaspils Municipality",
    "state_code": "087",
    "latitude": "56.86081520",
    "longitude": "24.34978810"
  },
  {
    "name": "Saldus Municipality",
    "state_code": "088",
    "latitude": "56.66650880",
    "longitude": "22.49354930"
  },
  {
    "name": "Saulkrasti Municipality",
    "state_code": "089",
    "latitude": "57.25794180",
    "longitude": "24.41831460"
  },
  {
    "name": "Sēja Municipality",
    "state_code": "090",
    "latitude": "57.20069950",
    "longitude": "24.59228210"
  },
  {
    "name": "Sigulda Municipality",
    "state_code": "091",
    "latitude": "57.10550920",
    "longitude": "24.83142590"
  },
  {
    "name": "Skrīveri Municipality",
    "state_code": "092",
    "latitude": "56.67613910",
    "longitude": "25.09788490"
  },
  {
    "name": "Skrunda Municipality",
    "state_code": "093",
    "latitude": "56.66434580",
    "longitude": "22.00457290"
  },
  {
    "name": "Smiltene Municipality",
    "state_code": "094",
    "latitude": "57.42303320",
    "longitude": "25.90027800"
  },
  {
    "name": "Stopiņi Municipality",
    "state_code": "095",
    "latitude": "56.93644900",
    "longitude": "24.28729490"
  },
  {
    "name": "Strenči Municipality",
    "state_code": "096",
    "latitude": "57.62254710",
    "longitude": "25.80480860"
  },
  {
    "name": "Talsi Municipality",
    "state_code": "097",
    "latitude": "57.34152080",
    "longitude": "22.57131250"
  },
  {
    "name": "Tērvete Municipality",
    "state_code": "098",
    "latitude": "56.41192010",
    "longitude": "23.31883320"
  },
  {
    "name": "Tukums Municipality",
    "state_code": "099",
    "latitude": "56.96728680",
    "longitude": "23.15243790"
  },
  {
    "name": "Vaiņode Municipality",
    "state_code": "100",
    "latitude": "56.41542710",
    "longitude": "21.85139840"
  },
  {
    "name": "Valka Municipality",
    "state_code": "101",
    "latitude": "57.77439000",
    "longitude": "26.01700500"
  },
  {
    "name": "Valmiera",
    "state_code": "VMR",
    "latitude": "57.53846590",
    "longitude": "25.42636180"
  },
  {
    "name": "Varakļāni Municipality",
    "state_code": "102",
    "latitude": "56.66880060",
    "longitude": "26.56364140"
  },
  {
    "name": "Vārkava Municipality",
    "state_code": "103",
    "latitude": "56.24657440",
    "longitude": "26.56643710"
  },
  {
    "name": "Vecpiebalga Municipality",
    "state_code": "104",
    "latitude": "57.06033560",
    "longitude": "25.81615920"
  },
  {
    "name": "Vecumnieki Municipality",
    "state_code": "105",
    "latitude": "56.60623370",
    "longitude": "24.52218910"
  },
  {
    "name": "Ventspils",
    "state_code": "VEN",
    "latitude": "57.39372160",
    "longitude": "21.56470660"
  },
  {
    "name": "Ventspils Municipality",
    "state_code": "106",
    "latitude": "57.28336820",
    "longitude": "21.85875580"
  },
  {
    "name": "Viesīte Municipality",
    "state_code": "107",
    "latitude": "56.31130850",
    "longitude": "25.50704640"
  },
  {
    "name": "Viļaka Municipality",
    "state_code": "108",
    "latitude": "57.17222630",
    "longitude": "27.66731880"
  },
  {
    "name": "Viļāni Municipality",
    "state_code": "109",
    "latitude": "56.54561710",
    "longitude": "26.91679270"
  },
  {
    "name": "Zilupe Municipality",
    "state_code": "110",
    "latitude": "56.30189850",
    "longitude": "28.13395900"
  }
]
