[
  {
    "name": "Al Wahat District",
    "state_code": "WA",
    "latitude": "29.04668080",
    "longitude": "21.85685860"
  },
  {
    "name": "Benghazi",
    "state_code": "BA",
    "latitude": "32.11942420",
    "longitude": "20.08679090"
  },
  {
    "name": "Derna District",
    "state_code": "DR",
    "latitude": "32.75561300",
    "longitude": "22.63774320"
  },
  {
    "name": "Ghat District",
    "state_code": "GT",
    "latitude": "24.96403710",
    "longitude": "10.17592850"
  },
  {
    "name": "Jabal al Akhdar",
    "state_code": "JA",
    "latitude": "23.18560810",
    "longitude": "57.37138790"
  },
  {
    "name": "Jabal al Gharbi District",
    "state_code": "JG",
    "latitude": "30.26380320",
    "longitude": "12.80547530"
  },
  {
    "name": "Jafara",
    "state_code": "JI",
    "latitude": "32.45259040",
    "longitude": "12.94355360"
  },
  {
    "name": "Jufra",
    "state_code": "JU",
    "latitude": "27.98351350",
    "longitude": "16.91225100"
  },
  {
    "name": "Kufra District",
    "state_code": "KF",
    "latitude": "23.31123890",
    "longitude": "21.85685860"
  },
  {
    "name": "Marj District",
    "state_code": "MJ",
    "latitude": "32.05503630",
    "longitude": "21.18911510"
  },
  {
    "name": "Misrata District",
    "state_code": "MI",
    "latitude": "32.32558840",
    "longitude": "15.09925560"
  },
  {
    "name": "Murqub",
    "state_code": "MB",
    "latitude": "32.45996770",
    "longitude": "14.10013260"
  },
  {
    "name": "Murzuq District",
    "state_code": "MQ",
    "latitude": "25.91822620",
    "longitude": "13.92600010"
  },
  {
    "name": "Nalut District",
    "state_code": "NL",
    "latitude": "31.87423480",
    "longitude": "10.97504840"
  },
  {
    "name": "Nuqat al Khams",
    "state_code": "NQ",
    "latitude": "32.69149090",
    "longitude": "11.88917210"
  },
  {
    "name": "Sabha District",
    "state_code": "SB",
    "latitude": "27.03654060",
    "longitude": "14.42902360"
  },
  {
    "name": "Sirte District",
    "state_code": "SR",
    "latitude": "31.18968900",
    "longitude": "16.57019270"
  },
  {
    "name": "Tripoli District",
    "state_code": "TB",
    "latitude": "32.64080210",
    "longitude": "13.26634790"
  },
  {
    "name": "Wadi al Hayaa District",
    "state_code": "WD",
    "latitude": "26.42259260",
    "longitude": "12.62162110"
  },
  {
    "name": "Wadi al Shatii District",
    "state_code": "WS",
    "latitude": "27.73514680",
    "longitude": "12.43805810"
  },
  {
    "name": "Zawiya District",
    "state_code": "ZA",
    "latitude": "32.76302820",
    "longitude": "12.73649620"
  }
]
