[
  {
    "name": "Anenii Noi District",
    "state_code": "AN",
    "latitude": "46.87956630",
    "longitude": "29.23121750"
  },
  {
    "name": "Bălți Municipality",
    "state_code": "BA",
    "latitude": "47.75399470",
    "longitude": "27.91841480"
  },
  {
    "name": "Basarabeasca District",
    "state_code": "BS",
    "latitude": "46.42370600",
    "longitude": "28.89354920"
  },
  {
    "name": "Bender Municipality",
    "state_code": "BD",
    "latitude": "46.82275510",
    "longitude": "29.46201010"
  },
  {
    "name": "Briceni District",
    "state_code": "BR",
    "latitude": "48.36320220",
    "longitude": "27.07503980"
  },
  {
    "name": "Cahul District",
    "state_code": "CA",
    "latitude": "45.89394040",
    "longitude": "28.18902750"
  },
  {
    "name": "Călărași District",
    "state_code": "CL",
    "latitude": "47.28694600",
    "longitude": "28.27453100"
  },
  {
    "name": "Cantemir District",
    "state_code": "CT",
    "latitude": "46.27717420",
    "longitude": "28.20096530"
  },
  {
    "name": "Căușeni District",
    "state_code": "CS",
    "latitude": "46.65547150",
    "longitude": "29.40912220"
  },
  {
    "name": "Chișinău Municipality",
    "state_code": "CU",
    "latitude": "47.01045290",
    "longitude": "28.86381020"
  },
  {
    "name": "Cimișlia District",
    "state_code": "CM",
    "latitude": "46.52508510",
    "longitude": "28.77218350"
  },
  {
    "name": "Criuleni District",
    "state_code": "CR",
    "latitude": "47.21361140",
    "longitude": "29.15575190"
  },
  {
    "name": "Dondușeni District",
    "state_code": "DO",
    "latitude": "48.23383050",
    "longitude": "27.59980870"
  },
  {
    "name": "Drochia District",
    "state_code": "DR",
    "latitude": "48.07977880",
    "longitude": "27.86041140"
  },
  {
    "name": "Dubăsari District",
    "state_code": "DU",
    "latitude": "47.26439420",
    "longitude": "29.15503480"
  },
  {
    "name": "Edineț District",
    "state_code": "ED",
    "latitude": "48.16789910",
    "longitude": "27.29361430"
  },
  {
    "name": "Fălești District",
    "state_code": "FA",
    "latitude": "47.56477250",
    "longitude": "27.72655930"
  },
  {
    "name": "Florești District",
    "state_code": "FL",
    "latitude": "47.86678490",
    "longitude": "28.33918640"
  },
  {
    "name": "Gagauzia",
    "state_code": "GA",
    "latitude": "46.09794350",
    "longitude": "28.63846450"
  },
  {
    "name": "Glodeni District",
    "state_code": "GL",
    "latitude": "47.77901560",
    "longitude": "27.51680100"
  },
  {
    "name": "Hîncești District",
    "state_code": "HI",
    "latitude": "46.82811470",
    "longitude": "28.58508890"
  },
  {
    "name": "Ialoveni District",
    "state_code": "IA",
    "latitude": "46.86308600",
    "longitude": "28.82342180"
  },
  {
    "name": "Nisporeni District",
    "state_code": "NI",
    "latitude": "47.07513490",
    "longitude": "28.17681550"
  },
  {
    "name": "Ocnița District",
    "state_code": "OC",
    "latitude": "48.41104350",
    "longitude": "27.47680920"
  },
  {
    "name": "Orhei District",
    "state_code": "OR",
    "latitude": "47.38604000",
    "longitude": "28.83030820"
  },
  {
    "name": "Rezina District",
    "state_code": "RE",
    "latitude": "47.71804470",
    "longitude": "28.88710240"
  },
  {
    "name": "Rîșcani District",
    "state_code": "RI",
    "latitude": "47.90701530",
    "longitude": "27.53749960"
  },
  {
    "name": "Sîngerei District",
    "state_code": "SI",
    "latitude": "47.63891340",
    "longitude": "28.13718160"
  },
  {
    "name": "Șoldănești District",
    "state_code": "SD",
    "latitude": "47.81473890",
    "longitude": "28.78895860"
  },
  {
    "name": "Soroca District",
    "state_code": "SO",
    "latitude": "48.15497430",
    "longitude": "28.28707830"
  },
  {
    "name": "Ștefan Vodă District",
    "state_code": "SV",
    "latitude": "46.55404880",
    "longitude": "29.70224200"
  },
  {
    "name": "Strășeni District",
    "state_code": "ST",
    "latitude": "47.14502670",
    "longitude": "28.61367360"
  },
  {
    "name": "Taraclia District",
    "state_code": "TA",
    "latitude": "45.89865100",
    "longitude": "28.66716440"
  },
  {
    "name": "Telenești District",
    "state_code": "TE",
    "latitude": "47.49839620",
    "longitude": "28.36760190"
  },
  {
    "name": "Transnistria autonomous territorial unit",
    "state_code": "SN",
    "latitude": "47.21529720",
    "longitude": "29.46380540"
  },
  {
    "name": "Ungheni District",
    "state_code": "UN",
    "latitude": "47.23057670",
    "longitude": "27.78926610"
  }
]
