[
  {
    "name": "Andrijevica Municipality",
    "state_code": "01",
    "latitude": "42.73624770",
    "longitude": "19.78595560"
  },
  {
    "name": "Bar Municipality",
    "state_code": "02",
    "latitude": "42.12781190",
    "longitude": "19.14043800"
  },
  {
    "name": "Berane Municipality",
    "state_code": "03",
    "latitude": "42.82572890",
    "longitude": "19.90205090"
  },
  {
    "name": "Bijelo Polje Municipality",
    "state_code": "04",
    "latitude": "43.08465260",
    "longitude": "19.71154720"
  },
  {
    "name": "Budva Municipality",
    "state_code": "05",
    "latitude": "42.31407200",
    "longitude": "18.83138320"
  },
  {
    "name": "Danilovgrad Municipality",
    "state_code": "07",
    "latitude": "42.58357000",
    "longitude": "19.14043800"
  },
  {
    "name": "Gusinje Municipality",
    "state_code": "22",
    "latitude": "42.55634550",
    "longitude": "19.83060510"
  },
  {
    "name": "Kolašin Municipality",
    "state_code": "09",
    "latitude": "42.76019160",
    "longitude": "19.42591140"
  },
  {
    "name": "Kotor Municipality",
    "state_code": "10",
    "latitude": "42.57402610",
    "longitude": "18.64131450"
  },
  {
    "name": "Mojkovac Municipality",
    "state_code": "11",
    "latitude": "42.96880180",
    "longitude": "19.52110630"
  },
  {
    "name": "Nikšić Municipality",
    "state_code": "12",
    "latitude": "42.79971840",
    "longitude": "18.76009630"
  },
  {
    "name": "Old Royal Capital Cetinje",
    "state_code": "06",
    "latitude": "42.39309590",
    "longitude": "18.91159640"
  },
  {
    "name": "Petnjica Municipality",
    "state_code": "23",
    "latitude": "42.93534800",
    "longitude": "20.02114490"
  },
  {
    "name": "Plav Municipality",
    "state_code": "13",
    "latitude": "42.60013370",
    "longitude": "19.94075410"
  },
  {
    "name": "Pljevlja Municipality",
    "state_code": "14",
    "latitude": "43.27233830",
    "longitude": "19.28315310"
  },
  {
    "name": "Plužine Municipality",
    "state_code": "15",
    "latitude": "43.15933840",
    "longitude": "18.85514840"
  },
  {
    "name": "Podgorica Municipality",
    "state_code": "16",
    "latitude": "42.36938340",
    "longitude": "19.28315310"
  },
  {
    "name": "Rožaje Municipality",
    "state_code": "17",
    "latitude": "42.84083890",
    "longitude": "20.16706280"
  },
  {
    "name": "Šavnik Municipality",
    "state_code": "18",
    "latitude": "42.96037560",
    "longitude": "19.14043800"
  },
  {
    "name": "Tivat Municipality",
    "state_code": "19",
    "latitude": "42.42348000",
    "longitude": "18.71851840"
  },
  {
    "name": "Ulcinj Municipality",
    "state_code": "20",
    "latitude": "41.96527950",
    "longitude": "19.30694320"
  },
  {
    "name": "Žabljak Municipality",
    "state_code": "21",
    "latitude": "43.15551520",
    "longitude": "19.12260180"
  }
]
