[
  {
    "name": "Antananarivo Province",
    "state_code": "T",
    "latitude": "-18.70514740",
    "longitude": "46.82528380"
  },
  {
    "name": "Antsiranana Province",
    "state_code": "D",
    "latitude": "-13.77153900",
    "longitude": "49.52799960"
  },
  {
    "name": "Fianarantsoa Province",
    "state_code": "F",
    "latitude": "-22.35362400",
    "longitude": "46.82528380"
  },
  {
    "name": "Mahajanga Province",
    "state_code": "M",
    "latitude": "-16.52388300",
    "longitude": "46.51626200"
  },
  {
    "name": "Toamasina Province",
    "state_code": "A",
    "latitude": "-18.14428110",
    "longitude": "49.39578360"
  },
  {
    "name": "Toliara Province",
    "state_code": "U",
    "latitude": "-23.35161910",
    "longitude": "43.68549360"
  }
]
