[
  {
    "name": "Bonaire",
    "state_code": "BQ1",
    "latitude": "12.20189020",
    "longitude": "-68.26238220"
  },
  {
    "name": "Drenthe",
    "state_code": "DR",
    "latitude": "52.94760120",
    "longitude": "6.62305860"
  },
  {
    "name": "Flevoland",
    "state_code": "FL",
    "latitude": "52.52797810",
    "longitude": "5.59535080"
  },
  {
    "name": "Friesland",
    "state_code": "FR",
    "latitude": "53.16416420",
    "longitude": "5.78175420"
  },
  {
    "name": "Gelderland",
    "state_code": "GE",
    "latitude": "52.04515500",
    "longitude": "5.87182350"
  },
  {
    "name": "Groningen",
    "state_code": "GR",
    "latitude": "53.21938350",
    "longitude": "6.56650170"
  },
  {
    "name": "Limburg",
    "state_code": "LI",
    "latitude": "51.44272380",
    "longitude": "6.06087260"
  },
  {
    "name": "North Brabant",
    "state_code": "NB",
    "latitude": "51.48265370",
    "longitude": "5.23216870"
  },
  {
    "name": "North Holland",
    "state_code": "NH",
    "latitude": "52.52058690",
    "longitude": "4.78847400"
  },
  {
    "name": "Overijssel",
    "state_code": "OV",
    "latitude": "52.43878140",
    "longitude": "6.50164110"
  },
  {
    "name": "Saba",
    "state_code": "BQ2",
    "latitude": "17.63546420",
    "longitude": "-63.23267630"
  },
  {
    "name": "Sint Eustatius",
    "state_code": "BQ3",
    "latitude": "17.48903060",
    "longitude": "-62.97355500"
  },
  {
    "name": "South Holland",
    "state_code": "ZH",
    "latitude": "51.99667920",
    "longitude": "4.55973970"
  },
  {
    "name": "Utrecht",
    "state_code": "UT",
    "latitude": "52.09073740",
    "longitude": "5.12142010"
  },
  {
    "name": "Zeeland",
    "state_code": "ZE",
    "latitude": "51.49403090",
    "longitude": "3.84968150"
  }
]
