[
  {
    "name": "Bagmati Zone",
    "state_code": "BA",
    "latitude": "28.03675770",
    "longitude": "85.43755740"
  },
  {
    "name": "Bheri Zone",
    "state_code": "BH",
    "latitude": "28.51745600",
    "longitude": "81.77870210"
  },
  {
    "name": "Central Region",
    "state_code": "1",
    "latitude": null,
    "longitude": null
  },
  {
    "name": "Dhaulagiri Zone",
    "state_code": "DH",
    "latitude": "28.61117600",
    "longitude": "83.50702030"
  },
  {
    "name": "Eastern Development Region",
    "state_code": "4",
    "latitude": "27.33090720",
    "longitude": "87.06242610"
  },
  {
    "name": "Far-Western Development Region",
    "state_code": "5",
    "latitude": "29.29878710",
    "longitude": "80.98710740"
  },
  {
    "name": "Gandaki Zone",
    "state_code": "GA",
    "latitude": "28.37320370",
    "longitude": "84.43827210"
  },
  {
    "name": "Janakpur Zone",
    "state_code": "JA",
    "latitude": "27.21108990",
    "longitude": "86.01215730"
  },
  {
    "name": "Karnali Zone",
    "state_code": "KA",
    "latitude": "29.38625550",
    "longitude": "82.38857830"
  },
  {
    "name": "Kosi Zone",
    "state_code": "KO",
    "latitude": "27.05365240",
    "longitude": "87.30161320"
  },
  {
    "name": "Lumbini Zone",
    "state_code": "LU",
    "latitude": "27.45000000",
    "longitude": "83.25000000"
  },
  {
    "name": "Mahakali Zone",
    "state_code": "MA",
    "latitude": "29.36010790",
    "longitude": "80.54384500"
  },
  {
    "name": "Mechi Zone",
    "state_code": "ME",
    "latitude": "26.87600070",
    "longitude": "87.93348030"
  },
  {
    "name": "Mid-Western Region",
    "state_code": "2",
    "latitude": "38.41118410",
    "longitude": "-90.38320980"
  },
  {
    "name": "Narayani Zone",
    "state_code": "NA",
    "latitude": "27.36117660",
    "longitude": "84.85679320"
  },
  {
    "name": "Rapti Zone",
    "state_code": "RA",
    "latitude": "28.27434700",
    "longitude": "82.38857830"
  },
  {
    "name": "Sagarmatha Zone",
    "state_code": "SA",
    "latitude": "27.32382630",
    "longitude": "86.74163740"
  },
  {
    "name": "Seti Zone",
    "state_code": "SE",
    "latitude": "29.69054270",
    "longitude": "81.33994140"
  },
  {
    "name": "Western Region",
    "state_code": "3",
    "latitude": null,
    "longitude": null
  }
]
