[
  {
    "name": "Ad Dakhiliyah",
    "state_code": "DA",
    "latitude": "22.85887580",
    "longitude": "57.53943560"
  },
  {
    "name": "Ad Dhahirah",
    "state_code": "ZA",
    "latitude": "23.21616740",
    "longitude": "56.49074440"
  },
  {
    "name": "Al Batinah North",
    "state_code": "BS",
    "latitude": "24.34198460",
    "longitude": "56.72989040"
  },
  {
    "name": "Al Batinah Region",
    "state_code": "BA",
    "latitude": "24.34198460",
    "longitude": "56.72989040"
  },
  {
    "name": "Al Batinah South",
    "state_code": "BJ",
    "latitude": "23.43149030",
    "longitude": "57.42397960"
  },
  {
    "name": "Al Buraimi",
    "state_code": "BU",
    "latitude": "24.16714130",
    "longitude": "56.11422530"
  },
  {
    "name": "Al Wusta",
    "state_code": "WU",
    "latitude": "19.95710780",
    "longitude": "56.27568460"
  },
  {
    "name": "Ash Sharqiyah North",
    "state_code": "SS",
    "latitude": "22.71411960",
    "longitude": "58.53080640"
  },
  {
    "name": "Ash Sharqiyah Region",
    "state_code": "SH",
    "latitude": "22.71411960",
    "longitude": "58.53080640"
  },
  {
    "name": "Ash Sharqiyah South",
    "state_code": "SJ",
    "latitude": "22.01582490",
    "longitude": "59.32519220"
  },
  {
    "name": "Dhofar",
    "state_code": "ZU",
    "latitude": "17.03221210",
    "longitude": "54.14252140"
  },
  {
    "name": "Musandam",
    "state_code": "MU",
    "latitude": "26.19861440",
    "longitude": "56.24609490"
  },
  {
    "name": "Muscat",
    "state_code": "MA",
    "latitude": "23.58803070",
    "longitude": "58.38287170"
  }
]
