[
  {
    "name": "Bougainville",
    "state_code": "NSB",
    "latitude": "-6.37539190",
    "longitude": "155.38071010"
  },
  {
    "name": "Central Province",
    "state_code": "CPM",
    "latitude": null,
    "longitude": null
  },
  {
    "name": "Chimbu Province",
    "state_code": "CPK",
    "latitude": "-6.30876820",
    "longitude": "144.87312190"
  },
  {
    "name": "East New Britain",
    "state_code": "EBR",
    "latitude": "-4.61289430",
    "longitude": "151.88773210"
  },
  {
    "name": "Eastern Highlands Province",
    "state_code": "EHG",
    "latitude": "-6.58616740",
    "longitude": "145.66896360"
  },
  {
    "name": "Enga Province",
    "state_code": "EPW",
    "latitude": "-5.30058490",
    "longitude": "143.56356370"
  },
  {
    "name": "Gulf",
    "state_code": "GPK",
    "latitude": "37.05483150",
    "longitude": "-94.43704190"
  },
  {
    "name": "Hela",
    "state_code": "HLA",
    "latitude": "42.33295160",
    "longitude": "-83.04826180"
  },
  {
    "name": "Jiwaka Province",
    "state_code": "JWK",
    "latitude": "-5.86911540",
    "longitude": "144.69727740"
  },
  {
    "name": "Madang Province",
    "state_code": "MPM",
    "latitude": "-4.98497330",
    "longitude": "145.13758340"
  },
  {
    "name": "Manus Province",
    "state_code": "MRL",
    "latitude": "-2.09411690",
    "longitude": "146.87609510"
  },
  {
    "name": "Milne Bay Province",
    "state_code": "MBA",
    "latitude": "-9.52214510",
    "longitude": "150.67496530"
  },
  {
    "name": "Morobe Province",
    "state_code": "MPL",
    "latitude": "-6.80137370",
    "longitude": "146.56164700"
  },
  {
    "name": "New Ireland Province",
    "state_code": "NIK",
    "latitude": "-4.28532560",
    "longitude": "152.92059180"
  },
  {
    "name": "Oro Province",
    "state_code": "NPP",
    "latitude": "-8.89880630",
    "longitude": "148.18929210"
  },
  {
    "name": "Port Moresby",
    "state_code": "NCD",
    "latitude": "-9.44380040",
    "longitude": "147.18026710"
  },
  {
    "name": "Sandaun Province",
    "state_code": "SAN",
    "latitude": "-3.71261790",
    "longitude": "141.68342750"
  },
  {
    "name": "Southern Highlands Province",
    "state_code": "SHM",
    "latitude": "-6.41790830",
    "longitude": "143.56356370"
  },
  {
    "name": "West New Britain Province",
    "state_code": "WBK",
    "latitude": "-5.70474320",
    "longitude": "150.02594660"
  },
  {
    "name": "Western Highlands Province",
    "state_code": "WHM",
    "latitude": "-5.62681280",
    "longitude": "144.25931180"
  },
  {
    "name": "Western Province",
    "state_code": "WPD",
    "latitude": null,
    "longitude": null
  }
]
