[
  {
    "name": "Abra",
    "state_code": "ABR",
    "latitude": "42.49708300",
    "longitude": "-96.38441000"
  },
  {
    "name": "Agusan del Norte",
    "state_code": "AGN",
    "latitude": "8.94562590",
    "longitude": "125.53192340"
  },
  {
    "name": "Agusan del Sur",
    "state_code": "AGS",
    "latitude": "8.04638880",
    "longitude": "126.06153840"
  },
  {
    "name": "Aklan",
    "state_code": "AKL",
    "latitude": "11.81661090",
    "longitude": "122.09415410"
  },
  {
    "name": "Albay",
    "state_code": "ALB",
    "latitude": "13.17748270",
    "longitude": "123.52800720"
  },
  {
    "name": "Antique",
    "state_code": "ANT",
    "latitude": "37.03586950",
    "longitude": "-95.63616940"
  },
  {
    "name": "Apayao",
    "state_code": "APA",
    "latitude": "18.01203040",
    "longitude": "121.17103890"
  },
  {
    "name": "Aurora",
    "state_code": "AUR",
    "latitude": "36.97089100",
    "longitude": "-93.71797900"
  },
  {
    "name": "Autonomous Region in Muslim Mindanao",
    "state_code": "14",
    "latitude": "6.95683130",
    "longitude": "124.24215970"
  },
  {
    "name": "Basilan",
    "state_code": "BAS",
    "latitude": "6.42963490",
    "longitude": "121.98701650"
  },
  {
    "name": "Bataan",
    "state_code": "BAN",
    "latitude": "14.64168420",
    "longitude": "120.48184460"
  },
  {
    "name": "Batanes",
    "state_code": "BTN",
    "latitude": "20.44850740",
    "longitude": "121.97081290"
  },
  {
    "name": "Batangas",
    "state_code": "BTG",
    "latitude": "13.75646510",
    "longitude": "121.05830760"
  },
  {
    "name": "Benguet",
    "state_code": "BEN",
    "latitude": "16.55772570",
    "longitude": "120.80394740"
  },
  {
    "name": "Bicol",
    "state_code": "05",
    "latitude": "13.42098850",
    "longitude": "123.41367360"
  },
  {
    "name": "Biliran",
    "state_code": "BIL",
    "latitude": "11.58331520",
    "longitude": "124.46418480"
  },
  {
    "name": "Bohol",
    "state_code": "BOH",
    "latitude": "9.84999110",
    "longitude": "124.14354270"
  },
  {
    "name": "Bukidnon",
    "state_code": "BUK",
    "latitude": "8.05150540",
    "longitude": "124.92299460"
  },
  {
    "name": "Bulacan",
    "state_code": "BUL",
    "latitude": "14.79427350",
    "longitude": "120.87990080"
  },
  {
    "name": "Cagayan",
    "state_code": "CAG",
    "latitude": "18.24896290",
    "longitude": "121.87878330"
  },
  {
    "name": "Cagayan Valley",
    "state_code": "02",
    "latitude": "16.97537580",
    "longitude": "121.81070790"
  },
  {
    "name": "Calabarzon",
    "state_code": "40",
    "latitude": "14.10078030",
    "longitude": "121.07937050"
  },
  {
    "name": "Camarines Norte",
    "state_code": "CAN",
    "latitude": "14.13902650",
    "longitude": "122.76330360"
  },
  {
    "name": "Camarines Sur",
    "state_code": "CAS",
    "latitude": "13.52501970",
    "longitude": "123.34861470"
  },
  {
    "name": "Camiguin",
    "state_code": "CAM",
    "latitude": "9.17321640",
    "longitude": "124.72987650"
  },
  {
    "name": "Capiz",
    "state_code": "CAP",
    "latitude": "11.55288160",
    "longitude": "122.74072300"
  },
  {
    "name": "Caraga",
    "state_code": "13",
    "latitude": "8.80145620",
    "longitude": "125.74068820"
  },
  {
    "name": "Catanduanes",
    "state_code": "CAT",
    "latitude": "13.70886840",
    "longitude": "124.24215970"
  },
  {
    "name": "Cavite",
    "state_code": "CAV",
    "latitude": "14.47912970",
    "longitude": "120.89696340"
  },
  {
    "name": "Cebu",
    "state_code": "CEB",
    "latitude": "10.31569920",
    "longitude": "123.88543660"
  },
  {
    "name": "Central Luzon",
    "state_code": "03",
    "latitude": "15.48277220",
    "longitude": "120.71200230"
  },
  {
    "name": "Central Visayas",
    "state_code": "07",
    "latitude": "9.81687500",
    "longitude": "124.06414190"
  },
  {
    "name": "Compostela Valley",
    "state_code": "COM",
    "latitude": "7.51251500",
    "longitude": "126.17626150"
  },
  {
    "name": "Cordillera Administrative",
    "state_code": "15",
    "latitude": "17.35125420",
    "longitude": "121.17188510"
  },
  {
    "name": "Cotabato",
    "state_code": "NCO",
    "latitude": "7.20466680",
    "longitude": "124.23104390"
  },
  {
    "name": "Davao",
    "state_code": "11",
    "latitude": "7.30416220",
    "longitude": "126.08934060"
  },
  {
    "name": "Davao del Norte",
    "state_code": "DAV",
    "latitude": "7.56176990",
    "longitude": "125.65328480"
  },
  {
    "name": "Davao del Sur",
    "state_code": "DAS",
    "latitude": "6.76626870",
    "longitude": "125.32842690"
  },
  {
    "name": "Davao Occidental",
    "state_code": "DVO",
    "latitude": "6.09413960",
    "longitude": "125.60954740"
  },
  {
    "name": "Davao Oriental",
    "state_code": "DAO",
    "latitude": "7.31715850",
    "longitude": "126.54198870"
  },
  {
    "name": "Dinagat Islands",
    "state_code": "DIN",
    "latitude": "10.12818160",
    "longitude": "125.60954740"
  },
  {
    "name": "Eastern Samar",
    "state_code": "EAS",
    "latitude": "11.50007310",
    "longitude": "125.49999080"
  },
  {
    "name": "Eastern Visayas",
    "state_code": "08",
    "latitude": "12.24455330",
    "longitude": "125.03881640"
  },
  {
    "name": "Guimaras",
    "state_code": "GUI",
    "latitude": "10.59286610",
    "longitude": "122.63250810"
  },
  {
    "name": "Ifugao",
    "state_code": "IFU",
    "latitude": "16.83307920",
    "longitude": "121.17103890"
  },
  {
    "name": "Ilocos",
    "state_code": "01",
    "latitude": "16.08321440",
    "longitude": "120.61998950"
  },
  {
    "name": "Ilocos Norte",
    "state_code": "ILN",
    "latitude": "18.16472810",
    "longitude": "120.71155920"
  },
  {
    "name": "Ilocos Sur",
    "state_code": "ILS",
    "latitude": "17.22786640",
    "longitude": "120.57395790"
  },
  {
    "name": "Iloilo",
    "state_code": "ILI",
    "latitude": "10.72015010",
    "longitude": "122.56210630"
  },
  {
    "name": "Isabela",
    "state_code": "ISA",
    "latitude": "18.50077590",
    "longitude": "-67.02434620"
  },
  {
    "name": "Kalinga",
    "state_code": "KAL",
    "latitude": "17.47404220",
    "longitude": "121.35416310"
  },
  {
    "name": "La Union",
    "state_code": "LUN",
    "latitude": "38.87668780",
    "longitude": "-77.12809120"
  },
  {
    "name": "Laguna",
    "state_code": "LAG",
    "latitude": "33.54271890",
    "longitude": "-117.78535680"
  },
  {
    "name": "Lanao del Norte",
    "state_code": "LAN",
    "latitude": "7.87218110",
    "longitude": "123.88577470"
  },
  {
    "name": "Lanao del Sur",
    "state_code": "LAS",
    "latitude": "7.82317600",
    "longitude": "124.41982430"
  },
  {
    "name": "Leyte",
    "state_code": "LEY",
    "latitude": "10.86245360",
    "longitude": "124.88111950"
  },
  {
    "name": "Maguindanao",
    "state_code": "MAG",
    "latitude": "6.94225810",
    "longitude": "124.41982430"
  },
  {
    "name": "Marinduque",
    "state_code": "MAD",
    "latitude": "13.47671710",
    "longitude": "121.90321920"
  },
  {
    "name": "Masbate",
    "state_code": "MAS",
    "latitude": "12.35743460",
    "longitude": "123.55040760"
  },
  {
    "name": "Metro Manila",
    "state_code": "NCR",
    "latitude": "14.60905370",
    "longitude": "121.02225650"
  },
  {
    "name": "Mimaropa",
    "state_code": "41",
    "latitude": "9.84320650",
    "longitude": "118.73647830"
  },
  {
    "name": "Misamis Occidental",
    "state_code": "MSC",
    "latitude": "8.33749030",
    "longitude": "123.70706190"
  },
  {
    "name": "Misamis Oriental",
    "state_code": "MSR",
    "latitude": "8.50455580",
    "longitude": "124.62195920"
  },
  {
    "name": "Mountain Province",
    "state_code": "MOU",
    "latitude": "40.70754370",
    "longitude": "-73.95010330"
  },
  {
    "name": "Negros Occidental",
    "state_code": "NEC",
    "latitude": "10.29256090",
    "longitude": "123.02465180"
  },
  {
    "name": "Negros Oriental",
    "state_code": "NER",
    "latitude": "9.62820830",
    "longitude": "122.98883190"
  },
  {
    "name": "Northern Mindanao",
    "state_code": "10",
    "latitude": "8.02016350",
    "longitude": "124.68565090"
  },
  {
    "name": "Northern Samar",
    "state_code": "NSA",
    "latitude": "12.36131990",
    "longitude": "124.77407930"
  },
  {
    "name": "Nueva Ecija",
    "state_code": "NUE",
    "latitude": "15.57837500",
    "longitude": "121.11126150"
  },
  {
    "name": "Nueva Vizcaya",
    "state_code": "NUV",
    "latitude": "16.33011070",
    "longitude": "121.17103890"
  },
  {
    "name": "Occidental Mindoro",
    "state_code": "MDC",
    "latitude": "13.10241110",
    "longitude": "120.76512840"
  },
  {
    "name": "Oriental Mindoro",
    "state_code": "MDR",
    "latitude": "13.05645980",
    "longitude": "121.40694170"
  },
  {
    "name": "Palawan",
    "state_code": "PLW",
    "latitude": "9.83494930",
    "longitude": "118.73836150"
  },
  {
    "name": "Pampanga",
    "state_code": "PAM",
    "latitude": "15.07940900",
    "longitude": "120.61998950"
  },
  {
    "name": "Pangasinan",
    "state_code": "PAN",
    "latitude": "15.89490550",
    "longitude": "120.28631830"
  },
  {
    "name": "Quezon",
    "state_code": "QUE",
    "latitude": "14.03139060",
    "longitude": "122.11309090"
  },
  {
    "name": "Quirino",
    "state_code": "QUI",
    "latitude": "16.27004240",
    "longitude": "121.53700030"
  },
  {
    "name": "Rizal",
    "state_code": "RIZ",
    "latitude": "14.60374460",
    "longitude": "121.30840880"
  },
  {
    "name": "Romblon",
    "state_code": "ROM",
    "latitude": "12.57780160",
    "longitude": "122.26914600"
  },
  {
    "name": "Sarangani",
    "state_code": "SAR",
    "latitude": "5.92671750",
    "longitude": "124.99475100"
  },
  {
    "name": "Siquijor",
    "state_code": "SIG",
    "latitude": "9.19987790",
    "longitude": "123.59519250"
  },
  {
    "name": "Soccsksargen",
    "state_code": "12",
    "latitude": "6.27069180",
    "longitude": "124.68565090"
  },
  {
    "name": "Sorsogon",
    "state_code": "SOR",
    "latitude": "12.99270950",
    "longitude": "124.01474640"
  },
  {
    "name": "South Cotabato",
    "state_code": "SCO",
    "latitude": "6.33575650",
    "longitude": "124.77407930"
  },
  {
    "name": "Southern Leyte",
    "state_code": "SLE",
    "latitude": "10.33462060",
    "longitude": "125.17087410"
  },
  {
    "name": "Sultan Kudarat",
    "state_code": "SUK",
    "latitude": "6.50694010",
    "longitude": "124.41982430"
  },
  {
    "name": "Sulu",
    "state_code": "SLU",
    "latitude": "5.97490110",
    "longitude": "121.03351000"
  },
  {
    "name": "Surigao del Norte",
    "state_code": "SUN",
    "latitude": "9.51482800",
    "longitude": "125.69699840"
  },
  {
    "name": "Surigao del Sur",
    "state_code": "SUR",
    "latitude": "8.54049060",
    "longitude": "126.11447580"
  },
  {
    "name": "Tarlac",
    "state_code": "TAR",
    "latitude": "15.47547860",
    "longitude": "120.59634920"
  },
  {
    "name": "Tawi-Tawi",
    "state_code": "TAW",
    "latitude": "5.13381100",
    "longitude": "119.95092600"
  },
  {
    "name": "Western Samar",
    "state_code": "WSA",
    "latitude": "12.00002060",
    "longitude": "124.99124520"
  },
  {
    "name": "Western Visayas",
    "state_code": "06",
    "latitude": "11.00498360",
    "longitude": "122.53727410"
  },
  {
    "name": "Zambales",
    "state_code": "ZMB",
    "latitude": "15.50817660",
    "longitude": "119.96978080"
  },
  {
    "name": "Zamboanga del Norte",
    "state_code": "ZAN",
    "latitude": "8.38862820",
    "longitude": "123.16888830"
  },
  {
    "name": "Zamboanga del Sur",
    "state_code": "ZAS",
    "latitude": "7.83830540",
    "longitude": "123.29666570"
  },
  {
    "name": "Zamboanga Peninsula",
    "state_code": "09",
    "latitude": "8.15407700",
    "longitude": "123.25879300"
  },
  {
    "name": "Zamboanga Sibugay",
    "state_code": "ZSI",
    "latitude": "7.52252470",
    "longitude": "122.31075170"
  }
]
