[
  {
    "name": "Azad Kashmir",
    "state_code": "JK",
    "latitude": "33.92590550",
    "longitude": "73.78103340"
  },
  {
    "name": "Balochistan",
    "state_code": "BA",
    "latitude": "28.49073320",
    "longitude": "65.09577920"
  },
  {
    "name": "Federally Administered Tribal Areas",
    "state_code": "TA",
    "latitude": "32.66747600",
    "longitude": "69.85974060"
  },
  {
    "name": "Gilgit-Baltistan",
    "state_code": "GB",
    "latitude": "35.80256670",
    "longitude": "74.98318080"
  },
  {
    "name": "Islamabad Capital Territory",
    "state_code": "IS",
    "latitude": "33.72049970",
    "longitude": "73.04052770"
  },
  {
    "name": "Khyber Pakhtunkhwa",
    "state_code": "KP",
    "latitude": "34.95262050",
    "longitude": "72.33111300"
  },
  {
    "name": "Punjab",
    "state_code": "PB",
    "latitude": "31.14713050",
    "longitude": "75.34121790"
  },
  {
    "name": "Sindh",
    "state_code": "SD",
    "latitude": "25.89430180",
    "longitude": "68.52471490"
  }
]
