[
  {
    "name": "Central Province",
    "state_code": "CE",
    "latitude": null,
    "longitude": null
  },
  {
    "name": "Choiseul Province",
    "state_code": "CH",
    "latitude": "-7.05014940",
    "longitude": "156.95114590"
  },
  {
    "name": "Guadalcanal Province",
    "state_code": "GU",
    "latitude": "-9.57732840",
    "longitude": "160.14558050"
  },
  {
    "name": "Honiara",
    "state_code": "CT",
    "latitude": "-9.44563810",
    "longitude": "159.97289990"
  },
  {
    "name": "Isabel Province",
    "state_code": "IS",
    "latitude": "-8.05923530",
    "longitude": "159.14470810"
  },
  {
    "name": "Makira-Ulawa Province",
    "state_code": "MK",
    "latitude": "-10.57374470",
    "longitude": "161.80969410"
  },
  {
    "name": "Malaita Province",
    "state_code": "ML",
    "latitude": "-8.94461680",
    "longitude": "160.90712360"
  },
  {
    "name": "Rennell and Bellona Province",
    "state_code": "RB",
    "latitude": "-11.61314350",
    "longitude": "160.16939490"
  },
  {
    "name": "Temotu Province",
    "state_code": "TE",
    "latitude": "-10.68692900",
    "longitude": "166.06239790"
  },
  {
    "name": "Western Province",
    "state_code": "WE",
    "latitude": null,
    "longitude": null
  }
]
