[
  {
    "name": "Acquaviva",
    "state_code": "01",
    "latitude": "41.86715970",
    "longitude": "14.74694790"
  },
  {
    "name": "Borgo Maggiore",
    "state_code": "06",
    "latitude": "43.95748820",
    "longitude": "12.45525460"
  },
  {
    "name": "Chiesanuova",
    "state_code": "02",
    "latitude": "45.42261720",
    "longitude": "7.65038540"
  },
  {
    "name": "Domagnano",
    "state_code": "03",
    "latitude": "43.95019290",
    "longitude": "12.46815370"
  },
  {
    "name": "Faetano",
    "state_code": "04",
    "latitude": "43.93489670",
    "longitude": "12.48965540"
  },
  {
    "name": "Fiorentino",
    "state_code": "05",
    "latitude": "43.90783370",
    "longitude": "12.45812090"
  },
  {
    "name": "Montegiardino",
    "state_code": "08",
    "latitude": "43.90529990",
    "longitude": "12.48105420"
  },
  {
    "name": "San Marino",
    "state_code": "07",
    "latitude": "43.94236000",
    "longitude": "12.45777700"
  },
  {
    "name": "Serravalle",
    "state_code": "09",
    "latitude": "44.72320840",
    "longitude": "8.85740050"
  }
]
