[
  {
    "name": "Ahuachapán Department",
    "state_code": "AH",
    "latitude": "13.82161480",
    "longitude": "-89.92532330"
  },
  {
    "name": "Cabañas Department",
    "state_code": "CA",
    "latitude": "13.86482880",
    "longitude": "-88.74939980"
  },
  {
    "name": "Chalatenango Department",
    "state_code": "CH",
    "latitude": "14.19166480",
    "longitude": "-89.17059980"
  },
  {
    "name": "Cuscatlán Department",
    "state_code": "CU",
    "latitude": "13.86619570",
    "longitude": "-89.05615320"
  },
  {
    "name": "La Libertad Department",
    "state_code": "LI",
    "latitude": "13.68176610",
    "longitude": "-89.36062980"
  },
  {
    "name": "La Paz Department",
    "state_code": "PA",
    "latitude": null,
    "longitude": null
  },
  {
    "name": "La Unión Department",
    "state_code": "UN",
    "latitude": "13.48864430",
    "longitude": "-87.89424510"
  },
  {
    "name": "Morazán Department",
    "state_code": "MO",
    "latitude": "13.76820000",
    "longitude": "-88.12913870"
  },
  {
    "name": "San Miguel Department",
    "state_code": "SM",
    "latitude": "13.44510410",
    "longitude": "-88.24611830"
  },
  {
    "name": "San Salvador Department",
    "state_code": "SS",
    "latitude": "13.77399970",
    "longitude": "-89.20867730"
  },
  {
    "name": "San Vicente Department",
    "state_code": "SV",
    "latitude": "13.58685610",
    "longitude": "-88.74939980"
  },
  {
    "name": "Santa Ana Department",
    "state_code": "SA",
    "latitude": "14.14611210",
    "longitude": "-89.51200840"
  },
  {
    "name": "Sonsonate Department",
    "state_code": "SO",
    "latitude": "13.68235800",
    "longitude": "-89.66281110"
  },
  {
    "name": "Usulután Department",
    "state_code": "US",
    "latitude": "13.44706340",
    "longitude": "-88.55653100"
  }
]
