[
  {
    "name": "Ariana",
    "state_code": "12",
    "latitude": "36.99227510",
    "longitude": "10.12551640"
  },
  {
    "name": "Béja",
    "state_code": "31",
    "latitude": "35.17227160",
    "longitude": "8.83076260"
  },
  {
    "name": "Ben Arous",
    "state_code": "13",
    "latitude": "36.64356060",
    "longitude": "10.21515780"
  },
  {
    "name": "Bizerte",
    "state_code": "23",
    "latitude": "37.16093970",
    "longitude": "9.63413500"
  },
  {
    "name": "Gabès",
    "state_code": "81",
    "latitude": "33.94596480",
    "longitude": "9.72326730"
  },
  {
    "name": "Gafsa",
    "state_code": "71",
    "latitude": "34.37885050",
    "longitude": "8.66005860"
  },
  {
    "name": "Jendouba",
    "state_code": "32",
    "latitude": "36.71818620",
    "longitude": "8.74811670"
  },
  {
    "name": "Kairouan",
    "state_code": "41",
    "latitude": "35.67116630",
    "longitude": "10.10054690"
  },
  {
    "name": "Kasserine",
    "state_code": "42",
    "latitude": "35.08091480",
    "longitude": "8.66005860"
  },
  {
    "name": "Kebili",
    "state_code": "73",
    "latitude": "33.70715510",
    "longitude": "8.97146230"
  },
  {
    "name": "Kef",
    "state_code": "33",
    "latitude": "36.12305120",
    "longitude": "8.66005860"
  },
  {
    "name": "Mahdia",
    "state_code": "53",
    "latitude": "35.33525580",
    "longitude": "10.89030990"
  },
  {
    "name": "Manouba",
    "state_code": "14",
    "latitude": "36.84465040",
    "longitude": "9.85714160"
  },
  {
    "name": "Medenine",
    "state_code": "82",
    "latitude": "33.22805650",
    "longitude": "10.89030990"
  },
  {
    "name": "Monastir",
    "state_code": "52",
    "latitude": "35.76425150",
    "longitude": "10.81128850"
  },
  {
    "name": "Nabeul",
    "state_code": "21",
    "latitude": "36.45245910",
    "longitude": "10.68032220"
  },
  {
    "name": "Sfax",
    "state_code": "61",
    "latitude": "34.86065810",
    "longitude": "10.34978950"
  },
  {
    "name": "Sidi Bouzid",
    "state_code": "43",
    "latitude": "35.03543860",
    "longitude": "9.48393920"
  },
  {
    "name": "Siliana",
    "state_code": "34",
    "latitude": "36.08872080",
    "longitude": "9.36453350"
  },
  {
    "name": "Sousse",
    "state_code": "51",
    "latitude": "35.90222670",
    "longitude": "10.34978950"
  },
  {
    "name": "Tataouine",
    "state_code": "83",
    "latitude": "32.13441220",
    "longitude": "10.08072980"
  },
  {
    "name": "Tozeur",
    "state_code": "72",
    "latitude": "33.97894910",
    "longitude": "8.04651850"
  },
  {
    "name": "Tunis",
    "state_code": "11",
    "latitude": "36.83749460",
    "longitude": "10.19273890"
  },
  {
    "name": "Zaghouan",
    "state_code": "22",
    "latitude": "36.40911880",
    "longitude": "10.14231720"
  }
]
