[
  {
    "name": "Eastern Cape",
    "state_code": "EC",
    "latitude": "-32.29684020",
    "longitude": "26.41938900"
  },
  {
    "name": "Free State",
    "state_code": "FS",
    "latitude": "37.68585250",
    "longitude": "-97.28112560"
  },
  {
    "name": "Gauteng",
    "state_code": "GP",
    "latitude": "-26.27075930",
    "longitude": "28.11226790"
  },
  {
    "name": "KwaZulu-Natal",
    "state_code": "KZN",
    "latitude": "-28.53055390",
    "longitude": "30.89582420"
  },
  {
    "name": "Limpopo",
    "state_code": "LP",
    "latitude": "-23.40129460",
    "longitude": "29.41793240"
  },
  {
    "name": "Mpumalanga",
    "state_code": "MP",
    "latitude": "-25.56533600",
    "longitude": "30.52790960"
  },
  {
    "name": "North West",
    "state_code": "NW",
    "latitude": "32.75885200",
    "longitude": "-97.32880600"
  },
  {
    "name": "Northern Cape",
    "state_code": "NC",
    "latitude": "-29.04668080",
    "longitude": "21.85685860"
  },
  {
    "name": "Western Cape",
    "state_code": "WC",
    "latitude": "-33.22779180",
    "longitude": "21.85685860"
  }
]
