[
  {
    "name": "Bulawayo Province",
    "state_code": "BU",
    "latitude": "-20.14895050",
    "longitude": "28.53310380"
  },
  {
    "name": "Harare Province",
    "state_code": "HA",
    "latitude": "-17.82162880",
    "longitude": "31.04922590"
  },
  {
    "name": "Manicaland",
    "state_code": "MA",
    "latitude": "-18.92163860",
    "longitude": "32.17460500"
  },
  {
    "name": "Mashonaland Central Province",
    "state_code": "MC",
    "latitude": "-16.76442950",
    "longitude": "31.07937050"
  },
  {
    "name": "Mashonaland East Province",
    "state_code": "ME",
    "latitude": "-18.58716420",
    "longitude": "31.26263660"
  },
  {
    "name": "Mashonaland West Province",
    "state_code": "MW",
    "latitude": "-17.48510290",
    "longitude": "29.78892480"
  },
  {
    "name": "Masvingo Province",
    "state_code": "MV",
    "latitude": "-20.62415090",
    "longitude": "31.26263660"
  },
  {
    "name": "Matabeleland North Province",
    "state_code": "MN",
    "latitude": "-18.53315660",
    "longitude": "27.54958460"
  },
  {
    "name": "Matabeleland South Province",
    "state_code": "MS",
    "latitude": "-21.05233700",
    "longitude": "29.04599270"
  },
  {
    "name": "Midlands Province",
    "state_code": "MI",
    "latitude": "-19.05520090",
    "longitude": "29.60354950"
  }
]
